{
  "version": 1,
  "checkins": [
    { "id": "demo-seattle", "name": "PNW Morning Crew", "city": "Seattle", "region": "WA", "latitude": 47.606, "longitude": -122.332, "platforms": ["twitch", "spotify"], "createdAt": "2026-07-12T14:30:00.000Z" },
    { "id": "demo-jersey", "name": "Jersey Jen", "city": "Hoboken", "region": "NJ", "latitude": 40.744, "longitude": -74.032, "platforms": ["apple"], "createdAt": "2026-07-12T14:22:00.000Z" },
    { "id": "demo-austin", "name": "ATX Listener", "city": "Austin", "region": "TX", "latitude": 30.267, "longitude": -97.743, "platforms": ["spotify", "youtube"], "createdAt": "2026-07-12T14:12:00.000Z" },
    { "id": "demo-chicago", "name": "Morning Mike", "city": "Chicago", "region": "IL", "latitude": 41.878, "longitude": -87.63, "platforms": ["iheart"], "createdAt": "2026-07-12T14:02:00.000Z" },
    { "id": "demo-la", "name": "West Coast Wakeup", "city": "Los Angeles", "region": "CA", "latitude": 34.052, "longitude": -118.244, "platforms": ["twitch", "apple", "spotify"], "createdAt": "2026-07-12T13:48:00.000Z" }
  ],
  "alerts": [],
  "comments": []
}
