{
  "version": 1,
  "checkins": [
    { "id": "demo-seattle", "name": "PNW Morning Crew", "city": "Seattle", "region": "WA", "latitude": 47.606, "longitude": -122.332, "platforms": ["twitch", "spotify"], "createdAt": "2026-07-12T14:30:00.000Z" },
    { "id": "demo-jersey", "name": "Jersey Jen", "city": "Hoboken", "region": "NJ", "latitude": 40.744, "longitude": -74.032, "platforms": ["apple"], "createdAt": "2026-07-12T14:22:00.000Z" },
    { "id": "demo-austin", "name": "ATX Listener", "city": "Austin", "region": "TX", "latitude": 30.267, "longitude": -97.743, "platforms": ["spotify", "youtube"], "createdAt": "2026-07-12T14:12:00.000Z" },
    { "id": "demo-chicago", "name": "Morning Mike", "city": "Chicago", "region": "IL", "latitude": 41.878, "longitude": -87.63, "platforms": ["iheart"], "createdAt": "2026-07-12T14:02:00.000Z" },
    { "id": "demo-la", "name": "West Coast Wakeup", "city": "Los Angeles", "region": "CA", "latitude": 34.052, "longitude": -118.244, "platforms": ["twitch", "apple", "spotify"], "createdAt": "2026-07-12T13:48:00.000Z" },
    { "id": "demo-portland-or", "name": "Rose City Riser", "city": "Portland", "region": "OR", "latitude": 45.515, "longitude": -122.679, "platforms": ["spotify"], "createdAt": "2026-07-12T13:44:00.000Z" },
    { "id": "demo-san-francisco", "name": "Bay Area Breakfast", "city": "San Francisco", "region": "CA", "latitude": 37.775, "longitude": -122.419, "platforms": ["apple", "spotify"], "createdAt": "2026-07-12T13:40:00.000Z" },
    { "id": "demo-san-diego", "name": "Sunny Side Sam", "city": "San Diego", "region": "CA", "latitude": 32.716, "longitude": -117.161, "platforms": ["youtube"], "createdAt": "2026-07-12T13:36:00.000Z" },
    { "id": "demo-phoenix", "name": "Desert Dawn", "city": "Phoenix", "region": "AZ", "latitude": 33.448, "longitude": -112.074, "platforms": ["iheart", "spotify"], "createdAt": "2026-07-12T13:32:00.000Z" },
    { "id": "demo-denver", "name": "Mile High Morning", "city": "Denver", "region": "CO", "latitude": 39.739, "longitude": -104.99, "platforms": ["twitch"], "createdAt": "2026-07-12T13:28:00.000Z" },
    { "id": "demo-boise", "name": "Boise Before Coffee", "city": "Boise", "region": "ID", "latitude": 43.616, "longitude": -116.202, "platforms": ["apple"], "createdAt": "2026-07-12T13:24:00.000Z" },
    { "id": "demo-slc", "name": "SLC Sunrise", "city": "Salt Lake City", "region": "UT", "latitude": 40.761, "longitude": -111.891, "platforms": ["spotify", "youtube"], "createdAt": "2026-07-12T13:20:00.000Z" },
    { "id": "demo-las-vegas", "name": "Vegas Wake Up", "city": "Las Vegas", "region": "NV", "latitude": 36.17, "longitude": -115.14, "platforms": ["twitch", "iheart"], "createdAt": "2026-07-12T13:16:00.000Z" },
    { "id": "demo-dallas", "name": "Big D Daily", "city": "Dallas", "region": "TX", "latitude": 32.777, "longitude": -96.797, "platforms": ["spotify"], "createdAt": "2026-07-12T13:12:00.000Z" },
    { "id": "demo-houston", "name": "H Town Heather", "city": "Houston", "region": "TX", "latitude": 29.76, "longitude": -95.37, "platforms": ["apple", "iheart"], "createdAt": "2026-07-12T13:08:00.000Z" },
    { "id": "demo-new-orleans", "name": "NOLA Knows", "city": "New Orleans", "region": "LA", "latitude": 29.951, "longitude": -90.072, "platforms": ["youtube", "spotify"], "createdAt": "2026-07-12T13:04:00.000Z" },
    { "id": "demo-kansas-city", "name": "KC Coffee Club", "city": "Kansas City", "region": "MO", "latitude": 39.1, "longitude": -94.579, "platforms": ["iheart"], "createdAt": "2026-07-12T13:00:00.000Z" },
    { "id": "demo-minneapolis", "name": "Twin Cities Tanya", "city": "Minneapolis", "region": "MN", "latitude": 44.978, "longitude": -93.265, "platforms": ["spotify", "twitch"], "createdAt": "2026-07-12T12:56:00.000Z" },
    { "id": "demo-milwaukee", "name": "Brew City Listener", "city": "Milwaukee", "region": "WI", "latitude": 43.039, "longitude": -87.906, "platforms": ["apple"], "createdAt": "2026-07-12T12:52:00.000Z" },
    { "id": "demo-detroit", "name": "Motor City Meg", "city": "Detroit", "region": "MI", "latitude": 42.331, "longitude": -83.046, "platforms": ["twitch", "youtube"], "createdAt": "2026-07-12T12:48:00.000Z" },
    { "id": "demo-nashville", "name": "Nashville Nicole", "city": "Nashville", "region": "TN", "latitude": 36.162, "longitude": -86.782, "platforms": ["iheart", "spotify"], "createdAt": "2026-07-12T12:44:00.000Z" },
    { "id": "demo-atlanta", "name": "ATL Alarm Clock", "city": "Atlanta", "region": "GA", "latitude": 33.749, "longitude": -84.388, "platforms": ["spotify"], "createdAt": "2026-07-12T12:40:00.000Z" },
    { "id": "demo-miami", "name": "Miami Morning Mood", "city": "Miami", "region": "FL", "latitude": 25.762, "longitude": -80.192, "platforms": ["apple", "youtube"], "createdAt": "2026-07-12T12:36:00.000Z" },
    { "id": "demo-orlando", "name": "Orlando On Air", "city": "Orlando", "region": "FL", "latitude": 28.538, "longitude": -81.379, "platforms": ["twitch"], "createdAt": "2026-07-12T12:32:00.000Z" },
    { "id": "demo-charlotte", "name": "Queen City Katie", "city": "Charlotte", "region": "NC", "latitude": 35.227, "longitude": -80.843, "platforms": ["spotify", "iheart"], "createdAt": "2026-07-12T12:28:00.000Z" },
    { "id": "demo-richmond", "name": "RVA Riser", "city": "Richmond", "region": "VA", "latitude": 37.541, "longitude": -77.436, "platforms": ["apple"], "createdAt": "2026-07-12T12:24:00.000Z" },
    { "id": "demo-baltimore", "name": "Charm City Chris", "city": "Baltimore", "region": "MD", "latitude": 39.29, "longitude": -76.612, "platforms": ["youtube", "twitch"], "createdAt": "2026-07-12T12:20:00.000Z" },
    { "id": "demo-philadelphia", "name": "Philly First Thing", "city": "Philadelphia", "region": "PA", "latitude": 39.953, "longitude": -75.165, "platforms": ["spotify"], "createdAt": "2026-07-12T12:16:00.000Z" },
    { "id": "demo-pittsburgh", "name": "Steel City Steph", "city": "Pittsburgh", "region": "PA", "latitude": 40.441, "longitude": -79.996, "platforms": ["iheart", "apple"], "createdAt": "2026-07-12T12:12:00.000Z" },
    { "id": "demo-boston", "name": "Boston Before Nine", "city": "Boston", "region": "MA", "latitude": 42.36, "longitude": -71.058, "platforms": ["twitch", "spotify"], "createdAt": "2026-07-12T12:08:00.000Z" },
    { "id": "demo-portland-me", "name": "Maine Morning", "city": "Portland", "region": "ME", "latitude": 43.659, "longitude": -70.257, "platforms": ["apple"], "createdAt": "2026-07-12T12:04:00.000Z" },
    { "id": "demo-buffalo", "name": "Buffalo Bree", "city": "Buffalo", "region": "NY", "latitude": 42.887, "longitude": -78.879, "platforms": ["iheart"], "createdAt": "2026-07-12T12:00:00.000Z" },
    { "id": "demo-brooklyn", "name": "Brooklyn Breakfast", "city": "Brooklyn", "region": "NY", "latitude": 40.678, "longitude": -73.945, "platforms": ["spotify", "youtube", "apple"], "createdAt": "2026-07-12T11:56:00.000Z" },
    { "id": "demo-dc", "name": "District Dawn", "city": "Washington", "region": "DC", "latitude": 38.907, "longitude": -77.037, "platforms": ["twitch"], "createdAt": "2026-07-12T11:52:00.000Z" },
    { "id": "demo-honolulu", "name": "Aloha Alarm", "city": "Honolulu", "region": "HI", "latitude": 21.307, "longitude": -157.858, "platforms": ["spotify", "apple"], "createdAt": "2026-07-12T11:48:00.000Z" },
    { "id": "demo-anchorage", "name": "Alaska Awake", "city": "Anchorage", "region": "AK", "latitude": 61.218, "longitude": -149.9, "platforms": ["youtube"], "createdAt": "2026-07-12T11:44:00.000Z" },
    { "id": "demo-toronto", "name": "Toronto Tune In", "city": "Toronto", "region": "ON", "latitude": 43.653, "longitude": -79.383, "platforms": ["spotify", "twitch"], "createdAt": "2026-07-12T11:40:00.000Z" },
    { "id": "demo-vancouver", "name": "Van City Listener", "city": "Vancouver", "region": "BC", "latitude": 49.282, "longitude": -123.121, "platforms": ["apple", "spotify"], "createdAt": "2026-07-12T11:36:00.000Z" },
    { "id": "demo-london", "name": "London Late Shift", "city": "London", "region": "UK", "latitude": 51.507, "longitude": -0.128, "platforms": ["youtube", "spotify"], "createdAt": "2026-07-12T11:32:00.000Z" },
    { "id": "demo-sydney", "name": "Sydney Tomorrow Crew", "city": "Sydney", "region": "NSW", "latitude": -33.869, "longitude": 151.209, "platforms": ["twitch", "apple"], "createdAt": "2026-07-12T11:28:00.000Z" }
  ],
  "alerts": [],
  "comments": []
}
